{
	"tiks": [
		{
			"lon": 36.4904945,
			"lat": 54.12236035,
			"desc": "пл. Победы, д. 1",
			"url": "http://www.tula.vybory.izbirkom.ru/region/tula?action=show_komissia&region=71&sub_region=71&type=100&vrnorg=271200070709&vrnkomis=471402019204",
			"phone": "(48763) 2-27-36",
			"name": "Суворовского района"
		},
		{
			"lon": 38.11595355,
			"lat": 53.1415653,
			"desc": "ул. Свердлова, д. 43",
			"url": "http://www.tula.vybory.izbirkom.ru/region/tula?action=show_komissia&region=71&sub_region=71&type=100&vrnorg=271200070669&vrnkomis=471401016278",
			"phone": "(48741) 6-08-52",
			"name": "Ефремовского района"
		}
	],
	"uiks": [
		{
			"lon": 38.1175216,
			"lat": 53.1520346,
			"obj": "Здание управления ООО «Зернопродукт»",
			"addr": "ул. Московская застава,  д. 1",
			"phone": "6-15-86",
			"district": 4,
			"number": 251
		},
		{
			"lon": 38.1224715,
			"lat": 53.1440858,
			"obj": "МУК «Ефремовский районный Дом Культуры»",
			"addr": "ул. Ломоносова, д. 48",
			"phone": "6-03-78",
			"district": 2,
			"number": 252
		},
		{
			"lon": 38.1183463,
			"lat": 53.1489576,
			"obj": "МОУ «Средняя общеобразовательная школа № 4» (актовый зал)",
			"addr": "ул. Словацкого Восстания, д. 16",
			"phone": "6-52-80",
			"district": 3,
			"number": 253
		},
		{
			"lon": 38.1191601,
			"lat": 53.1491479,
			"obj": "МОУ «Средняя общеобразовательная школа № 4» (первый этаж)",
			"addr": "ул. Словацкого Восстания д. 16",
			"phone": "6-61-77",
			"district": 3,
			"number": 254
		},
		{
			"lon": 38.12416025,
			"lat": 53.14341275,
			"obj": "МОУ «Средняя общеобразовательная школа № 1»",
			"addr": "ул. Карла Маркса, д. 41",
			"phone": "6-63-98",
			"district": 1,
			"number": 255
		},
		{
			"lon": 38.1225,
			"lat": 53.1442,
			"obj": "МУК «Ефремовский районный Дом Культуры»",
			"addr": "ул. Ломоносова, д. 48",
			"phone": "6-03-78",
			"district": 2,
			"number": 256
		},
		{
			"lon": 38.1082291,
			"lat": 53.1448333,
			"obj": "ГОУ НПО ТО «Профессиональное училище № 36»",
			"addr": "ул. Ленина, д. 38",
			"phone": "6-63-82",
			"district": 4,
			"number": 257
		},
		{
			"lon": 38.1091077,
			"lat": 53.1451028,
			"obj": "ГОУ НПО ТО «Профессиональное училище № 36»",
			"addr": "ул. Ленина, д. 38",
			"phone": "6-63-82",
			"district": 4,
			"number": 258
		},
		{
			"lon": 38.10639375,
			"lat": 53.1417254,
			"obj": "МОУ «Средняя общеобразовательная школа № 9»",
			"addr": "ул. Красноармейская, д. 68",
			"phone": "6-68-29",
			"district": 5,
			"number": 259
		},
		{
			"lon": 38.0991316,
			"lat": 53.1381989,
			"obj": "ГОУ СПО ТО «ЕХТТ»",
			"addr": "ул. Комсомольская, д. 126",
			"phone": "6-58-45",
			"district": 5,
			"number": 260
		},
		{
			"lon": 38.1143442,
			"lat": 53.1440094,
			"obj": "МОУ ДОД «Детская музыкальнаяшкола им. К. К. Иванова»",
			"addr": "ул. Свердлова, д. 55 А",
			"phone": "6-14-39",
			"district": 3,
			"number": 261
		},
		{
			"lon": 38.1112119,
			"lat": 53.13900215,
			"obj": "МОУ «Средняя общеобразовательная школа № 6»",
			"addr": "ул. Красноармейская, д. 41",
			"phone": "6-30-21",
			"district": 1,
			"number": 262
		},
		{
			"lon": 38.1154898,
			"lat": 53.1302850,
			"obj": "Ефремовский филиал ГБОУ ВПО РязГМУМинзравсоцразвития России",
			"addr": "ул. Дачная, д. 4",
			"phone": "6-66-24",
			"district": 1,
			"number": 263
		},
		{
			"lon": 38.0869772,
			"lat": 53.1483858,
			"obj": "МУ молодёжный центр «Октябрьский»",
			"addr": "ул. Мира, д. 2",
			"phone": "5-09-00",
			"district": 5,
			"number": 264
		},
		{
			"lon": 38.0865395,
			"lat": 53.1457734,
			"obj": "МОУ «Средняя общеобразовательная школа № 7»",
			"addr": "ул. Пионерская, д. 4",
			"phone": "7-60-33",
			"district": 7,
			"number": 265
		},
		{
			"lon": 38.0721452,
			"lat": 53.1469037,
			"obj": "НОУ ДПО Ефремовская автошкола ООГО ДОСААФ России",
			"addr": "ул. Ленинградская, д. 101",
			"phone": "7-74-14",
			"district": 6,
			"number": 266
		},
		{
			"lon": 38.0771914,
			"lat": 53.1385640,
			"obj": "МОУ «Средняя общеобразовательная школа № 10» (второй этаж)",
			"addr": "ул. Интернациональная д. 4",
			"phone": "7-16-66",
			"district": 7,
			"number": 267
		},
		{
			"lon": 38.0779221,
			"lat": 53.1387366,
			"obj": "МОУ «Средняя общеобразовательная школа № 10».(третий этаж)",
			"addr": "ул. Интернациональная, д. 4",
			"phone": "7-19-75",
			"district": 6,
			"number": 268
		},
		{
			"lon": 38.0920055,
			"lat": 53.1509148,
			"obj": "МОУ «Средняя общеобразовательная школа № 8» (левое крыло)",
			"addr": "ул. Дружбы, д. 7",
			"phone": "5-56-42",
			"district": 9,
			"number": 269
		},
		{
			"lon": 38.0931635,
			"lat": 53.1512041,
			"obj": "МОУ «Средняя общеобразовательная школа № 8» (правое крыло)",
			"addr": "ул. Дружбы, д. 7",
			"phone": "5-56-42",
			"district": 9,
			"number": 270
		},
		{
			"lon": 38.0924617,
			"lat": 53.1512700,
			"obj": "МОУ «Средняя общеобразовательная школа № 8»",
			"addr": "ул. Дружбы, д. 7",
			"phone": "5-56-42",
			"district": 9,
			"number": 271
		},
		{
			"lon": 38.0826250,
			"lat": 53.1545104,
			"obj": "МОУ «Средняя общеобразовательная школа № 5»",
			"addr": "ул. Строителей, д. 57",
			"phone": "5-07-21",
			"district": 10,
			"number": 272
		},
		{
			"lon": 38.0836857,
			"lat": 53.1548714,
			"obj": "МОУ «Средняя общеобразовательная школа № 5»",
			"addr": "ул. Строителей, д. 57",
			"phone": "5-07-21",
			"district": 10,
			"number": 273
		},
		{
			"lon": 38.0831768,
			"lat": 53.1544083,
			"obj": "МОУ «Средняя общеобразовательная школа № 5»",
			"addr": "ул. Строителей, д. 57",
			"phone": "5-05-59",
			"district": 10,
			"number": 274
		},
		{
			"lon": 38.0799734,
			"lat": 53.1497847,
			"obj": "МОУ «Средняя общеобразовательная школа № 3»",
			"addr": "ул. Ленинградская, д. 101",
			"phone": "2-84-55",
			"district": 1,
			"number": 278
		},
		{
			"lon": 38.0721452,
			"lat": 53.1469037,
			"obj": "НОУ ДПО Ефремовская автошкола ООГО ДОСААФ России",
			"addr": "ул. Ленинградская, д. 101",
			"phone": "7-74-14",
			"district": 6,
			"number": 278
		},
		{
			"lon": 38.1191601,
			"lat": 53.1469037,
			"obj": "МО ДОД «Детско-юношеская спортивная школа № 4 „Витязь“»",
			"addr": "??? ул. Молодёжная, д. 1-а",
			"phone": "7-74-14",
			"district": 6,
			"number": 279
		}
	]
}
